,City,Cloudiness,Country,Date,Humidity,Lat,Lng,Max Temp,Wind Speeds
0,bredasdorp,0,ZA,1592411694,72,-34.53,20.04,60.80,2.68
1,busselton,41,AU,1592411694,50,-33.65,115.33,57.99,20.80
2,broken hill,0,AU,1592411694,66,-31.95,141.43,48.20,6.93
3,mercedes,67,AR,1592411694,63,-34.65,-59.43,78.01,21.00
4,hasaki,75,JP,1592411694,88,35.73,140.83,66.20,3.36
5,ushuaia,40,AR,1592411694,69,-54.8,-68.3,39.20,3.36
6,mahebourg,75,MU,1592411695,100,-20.41,57.7,68.00,18.34
7,nakonde,5,ZM,1592411695,71,-9.34,32.74,55.35,9.31
8,rincon,90,US,1592411695,64,32.3,-81.24,70.00,10.29
9,georgetown,20,MY,1592411598,88,5.41,100.34,82.40,5.82
10,ishigaki,90,JP,1592411695,84,24.34,124.16,83.84,20.02
11,clyde river,90,CA,1592411695,73,70.47,-68.59,35.60,10.29
12,kindu,2,CD,1592411696,52,-2.95,25.95,75.22,1.23
13,castro,76,BR,1592411517,62,-24.79,-50.01,69.33,10.07
14,majene,81,ID,1592411696,84,-3.54,118.97,79.07,16.46
15,mongo,99,TD,1592411696,54,12.18,18.69,83.52,8.01
16,qaanaaq,52,GL,1592411696,92,77.48,-69.36,33.15,4.81
17,cabo san lucas,5,MX,1592411550,48,22.89,-109.91,88.00,6.93
18,carnarvon,90,AU,1592411696,88,-24.87,113.63,69.80,10.29
19,kapaa,20,US,1592411696,78,22.08,-159.32,75.20,12.75
20,kodinsk,2,RU,1592411524,57,58.69,99.18,49.39,2.08
21,longyearbyen,20,SJ,1592411697,77,78.22,15.64,39.20,8.05
22,witbank,78,ZA,1592411585,82,-25.87,29.23,43.03,13.24
23,pierre,1,US,1592411697,51,44.37,-100.35,84.99,21.92
24,new norfolk,0,AU,1592411697,89,-42.78,147.06,35.01,2.59
25,umba,11,RU,1592411697,53,66.69,34.34,57.27,6.06
26,carauari,3,BR,1592411698,44,-4.88,-66.9,92.17,4.12
27,vaini,20,TO,1592411698,78,-21.2,-175.2,71.60,10.29
28,provideniya,1,RU,1592411698,57,64.38,-173.3,54.50,3.13
29,leningradskiy,81,RU,1592411698,63,69.38,178.42,44.55,8.86
30,butaritari,8,KI,1592411698,77,3.07,172.79,82.80,15.66
31,barrow,75,US,1592411698,79,71.29,-156.79,37.40,12.75
32,arraial do cabo,40,BR,1592411698,57,-22.97,-42.03,77.00,16.11
33,bako,44,ET,1592411698,91,5.78,36.57,64.06,3.04
34,rikitea,59,PF,1592411699,81,-23.12,-134.97,75.18,16.58
35,mataura,96,NZ,1592411699,83,-46.19,168.86,39.00,3.00
36,dingle,100,PH,1592411699,80,11.0,122.67,78.06,2.86
37,chuy,100,UY,1592411699,67,-33.7,-53.46,72.14,14.43
38,praia,4,CV,1592411454,62,14.92,-23.51,86.00,4.70
39,manbij,0,SY,1592411699,37,36.53,37.95,84.20,18.34
40,punta arenas,0,CL,1592411683,76,-53.15,-70.92,35.60,8.05
41,broome,0,US,1592411700,46,42.25,-75.83,79.00,1.01
42,billund,61,DK,1592411700,68,55.73,9.11,73.40,8.05
43,hermanus,0,ZA,1592411700,78,-34.42,19.23,53.01,4.18
44,port alfred,0,ZA,1592411700,86,-33.59,26.89,57.00,4.00
45,pallasovka,0,RU,1592411700,45,50.05,46.88,73.36,9.06
46,takoradi,89,GH,1592411585,83,4.88,-1.76,79.07,14.36
47,bilma,1,NE,1592411701,9,18.69,12.92,99.66,1.86
48,hilo,40,US,1592411578,83,19.73,-155.09,69.80,5.82
49,crib point,0,AU,1592411701,87,-38.35,145.2,41.00,1.99
50,yar-sale,71,RU,1592411701,62,66.83,70.83,43.41,12.57
51,albany,0,US,1592411701,31,42.6,-73.97,84.00,1.99
52,areka,74,ET,1592411701,85,7.07,37.7,63.50,3.44
53,kamenka,0,RU,1592411701,68,51.32,42.77,68.50,6.08
54,richards bay,100,ZA,1592411702,78,-28.78,32.04,61.74,4.65
55,kisangani,95,CD,1592411702,63,0.52,25.2,78.91,1.41
56,sun valley,20,US,1592411620,35,39.6,-119.78,55.99,10.29
57,katsuura,75,JP,1592411702,83,35.13,140.3,71.60,6.93
58,atuona,51,PF,1592411702,72,-9.8,-139.03,80.40,15.59
59,jatiroto,79,ID,1592411702,87,-7.88,111.12,73.51,3.47
60,tiksi,100,RU,1592411703,93,71.69,128.87,47.80,3.31
61,bonthe,78,SL,1592411703,76,7.53,-12.51,83.88,12.10
62,east london,0,ZA,1592411703,72,-33.02,27.91,64.00,14.83
63,port blair,100,IN,1592411703,81,11.67,92.75,83.30,10.36
64,pitimbu,40,BR,1592411703,70,-7.47,-34.81,84.20,20.80
65,hithadhoo,41,MV,1592411704,73,-0.6,73.08,84.69,6.73
66,buchanan,75,LR,1592411704,83,5.88,-10.05,84.20,11.41
67,la ronge,90,CA,1592411704,76,55.1,-105.28,48.20,17.22
68,tuktoyaktuk,90,CA,1592411704,87,69.45,-133.04,46.40,10.29
69,akonolinga,92,CM,1592411704,94,3.77,12.25,72.99,2.01
70,le port,40,RE,1592411704,68,-20.94,55.29,71.60,3.36
71,bluff,46,NZ,1592411704,83,-46.6,168.33,39.00,3.00
72,novoagansk,100,RU,1592411705,90,61.94,76.66,45.23,10.80
73,narsaq,75,GL,1592411705,61,60.92,-46.05,46.40,6.93
74,port elizabeth,0,ZA,1592411705,82,-33.92,25.57,60.80,6.93
75,ribeira grande,75,PT,1592411705,64,38.52,-28.7,71.60,10.29
76,camacupa,0,AO,1592411705,46,-12.02,17.48,60.53,2.98
77,saskylakh,5,RU,1592411705,58,71.92,114.08,54.19,9.82
78,ponta do sol,40,PT,1592411706,78,32.67,-17.1,72.00,11.41
79,port-cartier,75,CA,1592411706,55,50.03,-66.87,68.00,3.36
80,san patricio,20,MX,1592411706,74,19.22,-104.7,86.00,6.93
81,half moon bay,5,US,1592411706,49,37.46,-122.43,69.01,4.70
82,talaya,100,RU,1592411706,81,61.38,152.75,53.94,0.56
83,perelyub,0,RU,1592411706,72,51.87,50.37,71.02,6.08
84,ilulissat,62,GL,1592411707,76,69.22,-51.1,37.94,4.79
85,mkushi,83,ZM,1592411707,60,-13.62,29.39,55.90,5.39
86,hofn,0,IS,1592411707,63,64.25,-15.21,50.09,6.76
87,kavieng,62,PG,1592411707,73,-2.57,150.8,82.47,4.94
88,kaitangata,94,NZ,1592411707,81,-46.28,169.85,44.01,4.00
89,yellowknife,40,CA,1592411707,57,62.46,-114.35,55.00,8.05
90,geraldton,90,AU,1592411449,68,-28.77,114.6,66.20,17.22
91,yulara,0,AU,1592411707,39,-25.24,130.99,46.40,5.82
92,chontalpa,31,MX,1592411708,80,17.7,-93.52,83.55,8.81
93,sarapul,0,RU,1592411708,50,56.48,53.8,66.00,1.99
94,tabou,89,CI,1592411708,84,4.42,-7.35,78.89,12.95
95,faanui,100,PF,1592411708,80,-16.48,-151.75,80.26,10.02
96,kysyl-syr,98,RU,1592411708,62,63.9,122.76,63.93,5.03
97,barahan,100,PH,1592411708,72,13.01,120.76,80.71,4.94
98,benalla,90,AU,1592411708,100,-36.55,145.98,44.01,4.70
99,chokurdakh,26,RU,1592411709,52,70.63,147.92,62.67,10.40
100,kodiak,90,US,1592411709,87,57.79,-152.41,50.00,23.04
101,coquimbo,75,CL,1592411709,76,-29.95,-71.34,53.60,14.99
102,buala,89,SB,1592411709,79,-8.14,159.59,80.74,6.17
103,peniche,0,PT,1592411709,66,39.36,-9.38,72.00,11.99
104,hobart,0,AU,1592411709,83,-42.88,147.33,37.99,8.05
105,havoysund,52,NO,1592411710,81,71.0,24.66,51.80,8.05
106,flinders,72,AU,1592411710,89,-34.58,150.86,53.01,3.96
107,lamu,39,KE,1592411710,77,-2.27,40.9,77.97,19.28
108,kungurtug,11,RU,1592411710,63,50.6,97.52,53.37,1.70
109,cape town,0,ZA,1592411691,45,-33.93,18.42,62.60,4.70
110,minab,0,IR,1592411711,75,27.15,57.08,93.20,4.70
111,umm kaddadah,94,SD,1592411711,26,13.6,26.69,94.42,9.04
112,hearst,59,CA,1592411711,33,49.68,-83.67,88.34,10.96
113,barguzin,0,RU,1592411711,64,53.62,109.62,48.67,3.24
114,kawalu,97,ID,1592411711,92,-7.38,108.21,71.67,0.78
115,lompoc,0,US,1592411609,67,34.64,-120.46,64.99,4.05
116,imbituba,75,BR,1592411712,73,-28.24,-48.67,73.40,18.34
117,itarema,7,BR,1592411712,63,-2.92,-39.92,85.75,14.00
118,ancud,40,CL,1592411712,87,-41.87,-73.82,54.00,11.41
119,ahipara,100,NZ,1592411712,91,-35.17,173.17,59.67,13.56
120,bethel,1,US,1592411712,49,41.37,-73.41,77.00,9.17
121,vao,48,NC,1592411712,78,-22.67,167.48,72.64,14.32
122,otake,90,JP,1592411712,73,34.2,132.22,73.40,3.36
123,varanasi,75,IN,1592411713,94,25.33,83.0,80.60,2.66
124,vila velha,40,BR,1592411713,88,-20.33,-40.29,71.01,4.70
125,bad ischl,20,AT,1592411713,50,47.71,13.62,75.20,8.05
126,soyo,20,AO,1592411713,84,-6.13,12.37,74.86,8.41
127,tuatapere,85,NZ,1592411713,83,-46.13,167.68,39.00,3.00
128,hauterive,75,FR,1592411713,52,46.09,3.45,66.20,10.29
129,dzaoudzi,0,YT,1592411713,69,-12.79,45.27,78.80,14.99
130,puerto ayora,75,EC,1592411714,78,-0.74,-90.35,75.20,9.17
131,lavrentiya,69,RU,1592411714,70,65.58,-171.0,46.80,1.97
132,kualakapuas,57,ID,1592411714,92,-3.01,114.39,75.07,2.98
133,avarua,14,CK,1592411714,64,-21.21,-159.78,71.60,6.93
134,bambous virieux,75,MU,1592411714,100,-20.34,57.76,69.01,18.34
135,sabha,0,LY,1592411714,10,27.04,14.43,92.37,7.96
136,gamba,95,GA,1592411714,83,-2.65,10.0,74.89,6.17
137,balabac,42,PH,1592411715,75,7.99,117.06,83.35,7.83
138,nyaunglebin,100,MM,1592411715,97,17.95,96.73,74.41,4.34
139,strezhevoy,90,RU,1592411715,93,60.73,77.59,51.80,8.95
140,nanortalik,47,GL,1592411715,76,60.14,-45.24,39.25,8.48
141,mount gambier,90,AU,1592411715,81,-37.83,140.77,46.40,6.93
142,mukhen,99,RU,1592411715,96,48.1,136.1,51.17,1.54
143,san pedro,20,PH,1592411715,70,14.35,121.02,86.00,4.70
144,kruisfontein,0,ZA,1592411716,49,-34.0,24.73,55.13,4.41
145,westport,40,US,1592411686,56,41.14,-73.36,79.00,10.29
146,cocorit,5,MX,1592411716,26,27.58,-109.97,91.40,8.05
147,murupara,100,NZ,1592411716,98,-38.47,176.7,57.99,1.01
148,palmer,20,US,1592411510,33,42.16,-72.33,80.01,6.93
149,xining,11,CN,1592411717,60,36.62,101.77,54.18,1.95
150,omboue,89,GA,1592411717,85,-1.57,9.26,74.64,8.72
151,camacha,75,PT,1592411717,88,33.08,-16.33,66.20,19.46
152,suleya,71,RU,1592411717,86,55.14,58.88,54.55,5.70
153,cherskiy,78,RU,1592411584,47,68.75,161.3,69.78,1.28
154,akom,77,CM,1592411717,96,2.67,12.71,71.44,2.21
155,trincomalee,96,LK,1592411717,74,8.57,81.23,83.98,17.58
156,tasiilaq,75,GL,1592411718,80,65.61,-37.64,39.20,28.86
157,shar,91,KZ,1592411718,41,49.59,81.05,66.81,12.41
158,lebu,97,CL,1592411718,86,-37.62,-73.65,53.92,7.52
159,alice springs,0,AU,1592411718,44,-23.7,133.88,39.20,5.70
160,prince rupert,90,CA,1592411470,82,54.32,-130.32,55.40,2.24
161,orebro,40,SE,1592411718,82,59.27,15.21,71.01,3.36
162,port moresby,90,PG,1592411718,94,-9.44,147.18,77.00,5.82
163,gravdal,20,NO,1592411719,59,68.12,13.5,60.80,10.29
164,ekhabi,100,RU,1592411719,97,53.51,142.97,39.22,8.63
165,rawson,93,AR,1592411719,44,-43.3,-65.1,58.78,13.89
166,northam,98,GB,1592411719,92,51.03,-4.22,59.00,1.99
167,hovd,89,MN,1592411719,47,48.01,91.64,65.62,4.72
168,upernavik,0,GL,1592411719,89,72.79,-56.15,33.96,4.34
169,jamestown,1,US,1592411720,49,42.1,-79.24,77.00,5.82
170,zhigansk,89,RU,1592411720,93,66.77,123.37,52.00,10.38
171,avera,90,US,1592411720,72,33.19,-82.53,69.01,5.82
172,obidos,36,BR,1592411458,58,-1.92,-55.52,87.37,7.78
173,khatanga,100,RU,1592411720,67,71.97,102.5,49.89,2.39
174,asau,94,RO,1592411720,69,46.43,26.4,71.01,1.68
175,salinopolis,26,BR,1592411721,66,-0.61,-47.36,85.80,11.30
176,kholtoson,39,RU,1592411721,88,50.3,103.31,48.22,1.57
177,mar del plata,90,AR,1592411721,93,-38.0,-57.56,64.40,12.75
178,conde,40,BR,1592411721,70,-7.26,-34.91,84.20,20.80
179,verkhnedneprovskiy,0,RU,1592411721,75,54.98,33.35,71.58,5.79
180,goderich,0,CA,1592411721,57,43.75,-81.72,78.01,2.89
181,yarada,75,IN,1592411721,79,17.65,83.27,86.00,9.17
182,trairi,0,BR,1592411722,64,-3.28,-39.27,85.53,12.68
183,torbay,75,CA,1592411645,37,47.67,-52.73,77.00,11.41
184,fairbanks,90,US,1592411722,67,64.84,-147.72,66.00,2.08
185,darhan,29,MN,1592411722,52,49.49,105.92,58.32,2.46
186,lagos,40,NG,1592411340,78,6.58,3.75,82.40,2.24
187,eseka,100,CM,1592411722,95,3.65,10.77,73.35,3.18
188,tazovskiy,22,RU,1592411447,69,67.47,78.7,39.40,3.69
189,toba,100,JP,1592411723,87,34.48,136.85,69.01,1.01
190,limbang,75,MY,1592411723,83,4.75,115.0,82.40,4.70
191,krasnoselkup,100,RU,1592411723,70,65.7,82.47,41.99,1.48
192,codrington,55,AU,1592411723,86,-38.27,141.97,43.52,9.44
193,vung tau,61,VN,1592411723,79,10.35,107.08,83.23,9.95
194,nikolskoye,40,RU,1592411724,54,59.7,30.79,78.80,8.95
195,bengkulu,88,ID,1592411724,87,-3.8,102.27,77.54,4.27
196,zhucheng,100,CN,1592411724,89,35.99,119.4,64.60,8.55
197,breves,4,BR,1592411628,54,-1.68,-50.48,89.33,6.02
198,poum,61,NC,1592411724,77,-20.23,164.02,73.31,15.90
199,portland,75,US,1592411673,76,45.52,-122.68,61.00,3.27
200,onverwacht,40,SR,1592411725,62,5.58,-55.18,87.80,11.41
201,saint-philippe,75,RE,1592411725,88,-21.36,55.77,71.60,25.28
202,ulladulla,90,AU,1592411581,87,-35.35,150.47,52.00,5.82
203,kavaratti,100,IN,1592411725,77,10.57,72.64,84.92,18.68
204,krasnyy chikoy,0,RU,1592411725,66,50.36,108.75,49.05,1.45
205,norman wells,20,CA,1592411725,59,65.28,-126.83,66.20,10.29
206,thompson,90,CA,1592411518,93,55.74,-97.86,41.00,19.46
207,victoria,0,HK,1592411639,78,22.29,114.16,82.00,5.01
208,cidreira,40,BR,1592411726,76,-30.18,-50.21,68.02,10.04
209,san rafael del sur,20,NI,1592411726,66,11.85,-86.44,86.00,9.17
210,bahia blanca,100,AR,1592411577,97,-38.72,-62.27,53.80,8.16
211,maceio,75,BR,1592411612,69,-9.67,-35.74,80.60,19.46
212,zaozerne,42,UA,1592411727,69,45.16,33.28,73.45,9.01
213,campo grande,40,BR,1592411727,45,-20.44,-54.65,82.40,21.92
214,mastung,0,PK,1592411727,15,29.8,66.84,79.32,2.73
215,idar,75,DE,1592411727,93,49.72,7.3,64.40,11.41
216,gorontalo,93,ID,1592411727,88,0.54,123.06,75.52,3.11
217,kamina,0,CD,1592411727,42,-8.74,24.99,64.76,3.20
218,fortuna,40,US,1592411728,82,40.6,-124.16,61.00,4.70
219,severo-kurilsk,100,RU,1592411728,91,50.68,156.12,42.40,4.21
220,rosarito,90,MX,1592411728,77,32.33,-117.03,66.00,6.93
221,shaki,40,AZ,1592411728,37,41.08,47.17,93.20,3.36
222,aksu,90,CN,1592411728,24,41.12,80.26,79.20,8.50
223,pacific grove,1,US,1592411504,63,36.62,-121.92,68.00,6.87
224,colac,12,AU,1592411633,98,-38.33,143.58,41.00,4.21
225,mahajanga,40,MG,1592411728,42,-15.72,46.32,82.40,9.17
226,mumford,66,GH,1592411729,86,5.26,-0.76,78.87,16.80
227,sahuaripa,0,MX,1592411729,22,29.05,-109.23,95.94,2.04
228,verkhnevilyuysk,68,RU,1592411729,85,63.45,120.32,53.56,7.81
229,porto santo,75,PT,1592411729,88,33.07,-16.34,66.20,19.46
230,mamou,35,GN,1592411729,81,10.5,-12.0,81.25,5.55
231,buraydah,1,SA,1592411729,15,26.33,43.98,102.20,12.75
232,iqaluit,75,CA,1592411730,60,63.75,-68.51,41.00,11.41
233,guerrero negro,62,MX,1592411730,61,27.98,-114.06,69.69,13.18
234,barreirinha,21,BR,1592411730,54,-2.79,-57.07,90.07,3.62
235,prince albert,90,CA,1592411492,93,53.2,-105.77,53.60,12.75
236,bardoli,70,IN,1592411730,73,21.12,73.12,84.04,12.84
237,devonport,16,AU,1592411730,85,-41.17,146.35,41.00,1.99
238,manaure,36,CO,1592411730,55,11.78,-72.44,89.11,18.16
239,salo,39,IT,1592411731,50,45.61,10.53,77.00,9.17
240,novo aripuana,37,BR,1592411731,72,-5.12,-60.38,85.62,3.18
241,saint george,1,US,1592411593,29,37.1,-113.58,79.00,10.29
242,suhbaatar,33,MN,1592411731,50,50.23,106.21,56.93,5.21
243,kamiiso,92,JP,1592411731,80,41.82,140.65,57.79,0.60
244,ribas do rio pardo,20,BR,1592411731,36,-20.44,-53.76,85.77,15.17
245,sept-iles,75,CA,1592411722,55,50.2,-66.38,68.00,3.36
246,noumea,75,NC,1592411283,88,-22.28,166.46,66.20,2.24
247,sao jose da coroa grande,18,BR,1592411732,73,-8.9,-35.15,79.70,15.01
248,plunge,45,LT,1592411732,64,55.91,21.84,68.00,9.17
249,lagoa,27,PT,1592411732,78,39.05,-27.98,63.39,10.76
250,yelizovo,90,RU,1592411732,100,53.19,158.38,41.00,4.47
251,mamit,100,IN,1592411732,93,23.93,92.48,73.60,5.26
252,sarab,12,IR,1592411732,37,38.61,44.99,76.93,8.66
253,kieta,83,PG,1592411733,76,-6.22,155.63,78.82,4.12
254,kenai,20,US,1592411733,81,60.55,-151.26,54.00,9.17
255,bathsheba,75,BB,1592411733,70,13.22,-59.52,86.00,21.92
256,borgarnes,72,IS,1592411733,58,64.54,-21.92,60.01,10.29
257,malakal,71,SS,1592411733,53,9.53,31.66,85.14,4.36
258,kyren,42,RU,1592411733,73,51.68,102.14,53.38,1.19
259,ocampo,4,MX,1592411733,39,21.65,-101.5,70.27,6.20
260,grand gaube,50,MU,1592411734,91,-20.01,57.66,69.01,11.01
261,glendive,20,US,1592411734,48,47.11,-104.71,66.99,17.22
262,shaunavon,79,CA,1592411734,79,49.65,-108.42,53.42,18.28
263,tulun,0,RU,1592411734,72,54.56,100.58,48.38,6.49
264,hamilton,1,US,1592411610,44,39.18,-84.53,81.00,10.29
265,kuala terengganu,20,MY,1592411734,88,5.33,103.14,78.80,5.82
266,alta floresta,0,BR,1592411734,40,-9.88,-56.09,89.60,11.41
267,souillac,75,MU,1592411734,100,-20.52,57.52,68.00,18.34
268,havre-saint-pierre,90,CA,1592411735,76,50.23,-63.6,57.20,9.17
269,storozhevaya,30,RU,1592411735,87,43.88,41.45,61.54,1.05
270,oktyabrskoye,75,RU,1592411735,88,43.06,44.74,69.01,4.47
271,remanso,75,BR,1592411735,46,-9.62,-42.08,83.93,14.27
272,college,75,US,1592411735,76,64.86,-147.8,62.01,1.97
273,visby,31,SE,1592411735,82,57.64,18.3,68.00,6.93
274,ulaangom,100,MN,1592411736,52,49.98,92.07,65.61,4.34
275,otjiwarongo,0,NA,1592411736,35,-20.46,16.65,58.62,10.51
276,tondano,20,ID,1592411736,94,1.3,124.91,77.00,1.12
277,huayucachi,81,PE,1592411736,48,-12.13,-75.23,60.93,1.23
278,mehamn,38,NO,1592411736,70,71.04,27.85,46.40,10.29
279,vardo,53,NO,1592411736,70,70.37,31.11,48.20,14.99
280,smirnykh,100,RU,1592411523,94,49.75,142.83,45.16,3.06
281,bandarbeyla,99,SO,1592411737,59,9.49,50.81,84.65,30.11
282,esso,38,RU,1592411737,76,55.93,158.7,47.25,3.76
283,lata,0,PT,1592411737,62,40.16,-8.33,69.01,11.05
284,pevek,85,RU,1592411737,65,69.7,170.31,44.01,4.54
285,fukue,100,JP,1592411738,91,32.69,128.84,70.23,12.37
286,kerema,100,PG,1592411738,86,-7.96,145.78,76.30,4.88
287,lao cai,39,VN,1592411738,78,22.48,103.95,78.60,2.13
288,shingu,100,JP,1592411738,74,33.73,135.98,67.35,2.71
289,ungheni,20,MD,1592411739,83,47.2,27.8,71.01,8.05
290,alekseyevka,0,RU,1592411739,78,50.63,38.69,71.71,8.63
291,senanga,29,ZM,1592411739,44,-16.12,23.27,62.56,8.12
292,namibe,0,AO,1592411739,57,-15.2,12.15,73.78,5.19
293,selaphum,100,TH,1592411739,89,16.03,103.94,77.09,6.78
294,comodoro rivadavia,77,AR,1592411739,71,-45.87,-67.5,50.00,4.38
295,harper,97,LR,1592411739,84,4.38,-7.72,79.00,13.33
296,kahului,20,US,1592411740,73,20.89,-156.47,75.20,10.29
297,mana,90,GF,1592411740,81,5.66,-53.78,82.36,6.67
298,san juan,50,AR,1592411740,35,-31.54,-68.54,59.34,8.23
299,samarai,100,PG,1592411740,83,-10.62,150.67,78.80,15.17
300,constitucion,100,CL,1592411740,87,-35.33,-72.42,53.60,9.71
301,peleduy,16,RU,1592411740,88,59.63,112.74,49.51,3.20
302,saint anthony,1,US,1592411741,45,45.02,-93.22,84.00,13.87
303,belaya gora,0,RU,1592411741,43,68.53,146.42,70.52,2.24
304,chardara,0,KZ,1592411741,30,41.25,67.97,73.02,10.56
305,naze,20,JP,1592411741,100,28.37,129.48,78.80,9.17
306,batagay-alyta,34,RU,1592411741,57,67.8,130.41,58.30,4.79
307,lakhdenpokhya,0,RU,1592411741,62,61.52,30.2,71.01,5.03
308,sale,75,MA,1592411741,64,34.04,-6.82,75.00,16.11
309,grindavik,75,IS,1592411742,71,63.84,-22.43,50.00,11.41
310,hervey bay,0,AU,1592411742,77,-25.3,152.85,60.80,8.05
311,aklavik,75,CA,1592411742,76,68.22,-135.01,53.60,8.05
312,martinsburg,90,US,1592411742,64,39.46,-77.96,70.00,11.41
313,mecca,0,SA,1592411717,18,21.43,39.83,93.74,8.12
314,nesna,93,NO,1592411742,53,66.2,13.02,80.60,9.17
315,ornskoldsvik,94,SE,1592411742,87,63.29,18.72,55.40,10.29
316,rocha,100,UY,1592411743,69,-34.48,-54.33,73.71,16.58
317,aseri,4,EE,1592411743,80,59.45,26.87,67.06,6.49
318,srednekolymsk,77,RU,1592411743,42,67.45,153.68,71.08,4.79
319,antofagasta,5,CL,1592411621,55,-23.65,-70.4,64.40,11.41
320,acarau,16,BR,1592411743,64,-2.89,-40.12,85.98,12.71
321,bolgar,55,RU,1592411584,54,54.95,49.07,80.60,2.24
322,mugur-aksy,97,RU,1592411744,71,50.35,90.5,52.50,2.80
323,bubaque,43,GW,1592411744,87,11.28,-15.83,80.40,14.70
324,regeneracao,1,BR,1592411744,45,-6.24,-42.69,89.42,8.88
325,arman,45,RU,1592411744,88,59.7,150.17,45.50,1.88
326,choa saidan shah,0,PK,1592411745,10,32.72,72.98,94.21,7.36
327,mongu,1,ZM,1592411745,44,-15.25,23.13,61.45,6.44
328,sao joao da barra,75,BR,1592411745,60,-21.64,-41.05,77.00,14.99
329,altus,1,US,1592411745,33,34.64,-99.33,87.80,12.75
330,teahupoo,75,PF,1592411745,88,-17.83,-149.27,77.00,9.17
331,saint-joseph,75,RE,1592411745,88,-21.37,55.62,68.00,25.28
332,chake chake,2,TZ,1592411746,69,-5.25,39.77,77.04,13.27
333,russkaya polyana,52,UA,1592411746,82,49.42,31.92,72.23,8.79
334,anshan,97,CN,1592411746,66,41.12,122.99,68.72,4.81
335,acapulco,5,MX,1592411548,70,16.86,-99.89,87.80,5.82
336,dulce nombre de culmi,91,HN,1592411746,85,15.1,-85.53,78.42,2.93
337,udachnyy,47,RU,1592411507,44,66.42,112.4,57.20,4.47
338,suifenhe,70,CN,1592411746,100,44.4,131.17,49.15,2.68
339,wuda,15,CN,1592411747,38,39.5,106.71,73.69,12.03
340,tessalit,0,ML,1592411747,6,20.2,1.01,110.97,13.38
341,saldanha,0,ZA,1592411747,28,-33.01,17.94,73.40,2.24
342,waipawa,100,NZ,1592411747,81,-41.41,175.52,54.00,1.99
343,ivdel,3,RU,1592411526,51,60.69,60.42,49.32,7.09
344,cochrane,75,CA,1592411549,71,51.18,-114.47,51.80,13.87
345,paamiut,100,GL,1592411747,92,61.99,-49.67,34.61,1.59
346,amurzet,5,RU,1592411525,93,47.7,131.1,47.30,4.76
347,sambava,30,MG,1592411748,71,-14.27,50.17,70.74,17.94
348,lere,31,NG,1592411748,77,10.39,8.57,77.38,11.48
349,barcelos,72,PT,1592411748,63,41.54,-8.62,69.01,12.75
350,boa vista,75,BR,1592411748,66,2.82,-60.67,84.20,5.82
351,port hardy,75,CA,1592411460,76,50.7,-127.42,57.20,6.93
352,kuzino,44,RU,1592411748,58,57.02,59.44,52.16,7.23
353,beloha,0,MG,1592411748,78,-25.17,45.05,63.37,13.13
354,cortez,1,US,1592411712,13,37.35,-108.59,75.20,13.87
355,sao filipe,11,CV,1592411749,80,14.9,-24.5,76.62,12.24
356,santona,40,ES,1592411749,72,43.44,-3.46,64.99,6.93
357,padang,65,ID,1592411749,81,-0.95,100.35,78.40,5.50
358,viedma,99,AR,1592411744,53,-40.81,-63.0,58.12,7.09
359,rio gallegos,0,AR,1592411749,100,-51.62,-69.22,28.40,4.70
360,rach gia,75,VN,1592411749,100,10.02,105.08,78.80,9.01
361,necochea,100,AR,1592411750,99,-38.55,-58.74,62.01,4.00
362,kathu,20,TH,1592411750,78,7.92,98.33,82.40,4.70
363,pisco,13,PE,1592411750,68,-13.7,-76.22,69.01,10.29
364,dhidhdhoo,100,MV,1592411750,80,6.88,73.1,84.54,15.86
365,kasempa,6,ZM,1592411750,53,-13.46,25.83,58.44,5.77
366,ossora,100,RU,1592411750,90,59.24,163.07,52.05,2.46
367,nara,100,JP,1592411751,24,34.69,135.8,73.99,1.16
368,gunjur,64,GM,1592411751,52,13.2,-16.73,93.20,13.87
369,grafton,1,US,1592411751,33,42.21,-71.69,82.00,3.36
370,cayenne,72,GF,1592411751,66,4.93,-52.33,86.00,8.05
371,abha,40,SA,1592411751,50,18.22,42.51,80.60,6.93
372,sinnamary,64,GF,1592411751,75,5.38,-52.95,83.37,4.47
373,norden,75,DE,1592411752,56,53.6,7.2,75.99,10.29
374,salalah,13,OM,1592411752,79,17.02,54.09,86.00,9.17
375,norsup,75,VU,1592411752,83,-16.07,167.38,78.80,6.93
376,cartagena del chaira,92,CO,1592411752,80,1.33,-74.84,79.63,3.11
377,airai,8,TL,1592411752,98,-8.93,125.41,55.35,4.68
378,mojo,40,ET,1592411752,60,8.6,39.12,68.00,6.93
379,monastyrshchina,0,RU,1592411752,78,54.35,31.84,71.58,6.71
380,plaster rock,1,CA,1592411753,26,46.91,-67.39,87.01,12.75
381,muros,64,ES,1592411753,70,42.78,-9.06,64.99,11.99
382,saint-pierre,75,RE,1592411753,88,-21.34,55.48,68.00,25.28
383,luderitz,0,NA,1592411753,10,-26.65,15.16,87.80,8.05
384,farkhor,20,TJ,1592411753,30,37.49,69.4,84.20,2.24
385,soja,100,JP,1592411753,87,34.67,133.75,66.00,1.72
386,vinh long,75,VN,1592411754,100,10.25,105.97,78.80,5.21
387,perth,75,AU,1592411639,72,-31.93,115.83,61.00,17.22
388,lesnyye polyany,99,RU,1592411754,44,55.97,37.87,87.01,8.95
389,muisne,75,EC,1592411754,83,0.6,-80.03,82.40,6.93
390,hobyo,93,SO,1592411754,69,5.35,48.53,80.64,27.22
391,whitehorse,20,CA,1592411592,71,60.72,-135.05,50.00,16.11
392,saquena,7,PE,1592411754,50,-4.67,-73.52,90.37,3.40
393,son la,76,VN,1592411754,91,21.32,103.9,72.27,1.14
394,mount isa,0,AU,1592411755,40,-20.73,139.5,68.00,10.29
395,shihezi,100,CN,1592411755,41,44.3,86.03,74.80,5.14
396,aizkraukle,44,LV,1592411755,66,56.6,25.26,79.00,5.99
397,weymouth,0,US,1592411679,49,42.22,-70.94,80.01,4.81
398,maldonado,100,UY,1592411755,60,-34.67,-54.92,77.00,16.11
399,cartagena,40,CO,1592411755,66,10.4,-75.51,89.60,4.70
400,bonfim,83,BR,1592411756,73,3.08,-59.95,83.08,8.86
401,fujin,0,CN,1592411756,92,47.26,132.03,46.78,7.78
402,olafsvik,96,IS,1592411756,76,64.89,-23.71,48.45,6.82
403,dikson,93,RU,1592411756,92,73.51,80.55,32.83,1.50
404,khani,40,GE,1592411756,54,41.96,42.96,80.60,10.29
405,columbus,75,US,1592411579,41,39.96,-83.0,80.01,11.41
406,skjervoy,0,NO,1592411756,73,70.03,20.97,47.82,2.73
407,boguchany,0,RU,1592411757,58,58.38,97.45,50.09,3.29
408,abu dhabi,0,AE,1592411403,67,24.47,54.37,93.20,5.82
409,urusha,2,RU,1592411757,72,54.05,122.9,47.57,3.44
410,krasnoarmeysk,0,RU,1592411757,48,51.02,45.7,67.23,4.03
411,rio grande,83,BR,1592411671,57,-32.03,-52.1,78.80,11.41
412,hof,100,DE,1592411758,52,50.32,11.92,70.00,10.29
413,kasongo-lunda,1,CD,1592411758,32,-6.47,16.82,76.66,3.00
414,chicama,15,PE,1592411758,57,-7.84,-79.15,73.92,9.51
415,terrace,75,CA,1592411565,76,54.52,-128.6,55.40,1.28
416,jalu,0,LY,1592411758,24,29.03,21.55,87.26,17.98
417,sydney,75,AU,1592411590,76,-33.87,151.21,59.00,8.05
418,port maria,100,JM,1592411759,73,18.37,-76.89,88.00,8.99
419,phibun mangsahan,75,TH,1592411759,100,15.24,105.23,75.20,2.24
420,jiayuguan,0,CN,1592411759,19,39.82,98.3,73.56,8.70
421,faya,40,SA,1592411759,50,18.39,42.45,80.60,6.93
422,yishui,100,CN,1592411759,91,35.78,118.63,63.97,11.63
423,lincoln,1,US,1592411563,48,40.8,-96.67,87.01,17.22
424,akcaabat,20,TR,1592411759,73,41.02,39.57,77.00,4.70
425,zaltan,0,LY,1592411760,33,32.95,11.87,84.24,17.98
426,skibbereen,75,IE,1592411760,77,51.55,-9.27,60.80,11.41
427,malanje,0,AO,1592411760,34,-9.54,16.34,68.14,4.18
428,vila franca do campo,40,PT,1592411760,72,37.72,-25.43,68.00,20.80
429,victor harbor,29,AU,1592411760,95,-35.57,138.62,46.99,11.25
430,vanimo,52,PG,1592411760,84,-2.67,141.3,76.73,3.62
431,sibolga,83,ID,1592411760,81,1.74,98.78,78.53,3.65
432,morondava,2,MG,1592411761,60,-20.28,44.28,77.16,9.24
433,luwuk,78,ID,1592411761,80,-0.95,122.79,78.46,5.55
434,ngama,100,TD,1592411761,47,11.78,17.17,89.51,14.50
435,san vicente,0,AR,1592411761,56,-26.62,-54.13,76.15,9.24
436,tautira,75,PF,1592411761,88,-17.73,-149.15,77.00,9.17
437,lazaro cardenas,0,MX,1592411761,52,17.96,-102.2,88.90,5.88
438,zavyalovo,17,RU,1592411761,63,54.51,82.45,62.60,4.47
439,santa maria,1,BR,1592411762,57,-29.68,-53.81,77.00,12.75
440,el alto,18,PE,1592411762,69,-4.27,-81.21,73.40,23.04
441,mahanje,66,TZ,1592411762,66,-9.93,35.33,62.91,2.68
442,tabas,0,IR,1592411762,9,33.6,56.92,100.40,6.93
443,ulaanbaatar,40,MN,1592411501,62,47.91,106.88,53.60,4.47
444,hay river,75,CA,1592411465,62,60.82,-115.8,59.00,8.05
445,asfi,41,MA,1592411763,70,32.3,-9.24,72.27,22.21
446,velyka lepetykha,60,UA,1592411763,67,47.18,33.94,76.51,4.32
447,port hedland,0,AU,1592411763,88,-20.32,118.57,62.60,2.04
448,castle douglas,70,GB,1592411763,92,54.94,-3.93,63.00,1.99
449,ketchikan,75,US,1592411763,71,55.34,-131.65,55.40,8.05
450,greymouth,86,NZ,1592411763,94,-42.47,171.2,49.98,5.32
451,najran,20,SA,1592411764,11,17.49,44.13,95.00,6.93
452,cururupu,24,BR,1592411764,61,-1.83,-44.87,86.95,6.58
453,ust-kuyga,60,RU,1592411764,57,70.02,135.6,66.70,6.55
454,nueva concepcion,75,GT,1592411764,83,14.2,-91.3,82.40,4.74
455,nizhnyaya tavda,29,RU,1592411764,82,57.67,66.17,47.88,5.44
456,san quintin,98,MX,1592411764,66,30.48,-115.95,66.40,6.55
457,ayr,75,GB,1592411764,73,55.46,-4.63,72.00,4.70
458,ixtapa,5,MX,1592411764,62,20.7,-105.2,84.99,3.36
459,iracoubo,88,GF,1592411765,81,5.48,-53.2,82.29,5.95
460,dudinka,40,RU,1592411765,86,69.41,86.18,39.20,8.95
461,saint-augustin,100,CA,1592411765,83,51.23,-58.65,58.32,9.66
462,adlay,99,PH,1592411765,80,9.41,125.9,79.14,3.58
463,tabuk,100,PH,1592411765,87,17.42,121.44,75.90,0.43
464,margate,100,GB,1592411564,82,51.38,1.39,68.00,1.01
465,dubbo,1,AU,1592411765,87,-32.25,148.62,50.00,10.29
466,batemans bay,95,AU,1592411766,93,-35.72,150.18,48.00,3.58
467,matara,12,LK,1592411766,89,5.95,80.54,80.02,8.03
468,lorengau,8,PG,1592411766,78,-2.02,147.27,80.42,5.35
469,vershino-darasunskiy,6,RU,1592411526,96,52.35,115.52,50.88,3.53
470,musoma,20,TZ,1592411766,44,-1.5,33.8,80.60,11.41
471,usinsk,91,RU,1592411766,64,65.99,57.53,42.31,14.52
472,mandalgovi,42,MN,1592411766,48,45.76,106.27,63.95,12.41
473,belyy yar,53,RU,1592411767,67,53.6,91.39,59.00,2.24
474,moses lake,1,US,1592411767,45,47.13,-119.28,68.00,4.70
475,ostrovnoy,64,RU,1592411767,69,68.05,39.51,43.83,5.86
476,tadine,25,NC,1592411767,84,-21.55,167.88,71.24,10.87
477,talnakh,40,RU,1592411767,86,69.49,88.4,39.20,8.95
478,vostok,100,RU,1592411767,100,46.49,135.88,45.30,1.59
479,kalmar,12,SE,1592411767,68,56.66,16.36,66.20,6.93
480,camopi,30,GF,1592411768,92,3.17,-52.32,81.72,4.03
481,paita,40,PE,1592411768,69,-5.09,-81.11,73.40,23.04
482,sitka,90,US,1592411768,81,57.05,-135.33,51.80,3.98
483,bulalacao,100,PH,1592411768,72,12.33,121.34,81.57,5.17
484,mountain home,90,US,1592411704,66,43.13,-115.69,53.60,23.04
485,vestmannaeyjar,90,IS,1592411768,71,63.44,-20.27,50.00,10.29
486,balad,0,IQ,1592411768,15,34.02,44.15,91.85,11.92
487,gizo,100,SB,1592411769,78,-8.1,156.84,82.40,13.09
488,kattivakkam,40,IN,1592411769,74,13.22,80.32,88.00,9.17
489,dharchula,34,IN,1592411769,68,29.85,80.53,71.65,2.30
490,dagana,0,MR,1592411769,24,16.52,-15.51,111.20,11.74
491,villazon,0,BO,1592411769,21,-22.09,-65.59,62.62,15.03
492,coihueco,75,CL,1592411769,76,-36.62,-71.83,53.60,14.99
493,bethanien,0,NA,1592411769,35,-26.5,17.16,56.14,8.88
494,cuauhtemoc,14,MX,1592411619,46,28.42,-106.87,75.99,3.00
495,omsukchan,14,RU,1592411770,79,62.53,155.8,45.52,4.41
496,southbridge,0,US,1592411536,38,42.08,-72.03,79.00,1.99
497,sibi,0,PK,1592411770,7,29.54,67.88,104.86,4.34
498,amursk,99,RU,1592411770,75,50.23,136.9,50.40,14.43
499,zyryanka,51,RU,1592411770,55,65.75,150.85,67.23,4.45
500,chkalovsk,40,RU,1592411770,82,56.76,43.24,69.01,2.24
501,kato glikovrisi,20,GR,1592411770,73,36.83,22.78,77.00,20.80
502,aden,99,YE,1592411771,69,12.78,45.04,88.92,9.82
503,kutum,86,SD,1592411771,18,14.2,24.67,86.25,6.87
504,tignere,94,CM,1592411771,91,7.37,12.65,69.31,3.76
505,rodby,29,DK,1592411771,63,54.7,11.39,70.00,4.00
506,iquique,75,CL,1592411771,59,-20.22,-70.14,66.20,12.75
507,bitung,20,ID,1592411771,94,1.45,125.18,77.00,1.12
508,shimoda,100,JP,1592411771,94,34.67,138.95,63.00,4.61
509,manoel urbano,0,BR,1592411771,40,-8.84,-69.26,92.19,2.24
510,san policarpo,100,PH,1592411772,81,12.18,125.51,81.25,2.42
511,sortland,29,NO,1592411772,48,68.69,15.42,64.99,4.70
512,sur,8,OM,1592411772,68,22.57,59.53,88.74,11.23
513,oistins,75,BB,1592411772,70,13.07,-59.53,86.00,21.92
514,abu kamal,0,SY,1592411772,15,34.45,40.92,94.05,14.72
515,karratha,0,AU,1592411772,75,-20.74,116.85,68.52,1.90
516,turukhansk,100,RU,1592411772,92,65.82,87.98,42.35,5.59
517,tsabong,0,BW,1592411772,47,-26.02,22.4,55.72,10.18
518,sungaipenuh,97,ID,1592411773,94,-2.08,101.38,65.68,2.48
519,hami,99,CN,1592411773,12,42.8,93.45,88.09,8.90
520,waingapu,31,ID,1592411773,81,-9.66,120.26,76.19,11.88
521,lashio,100,MM,1592411773,100,22.93,97.75,70.29,2.24
522,sobolevo,0,RU,1592411773,78,54.43,31.9,71.78,6.33
523,ambilobe,38,MG,1592411773,64,-13.2,49.05,71.01,5.30
524,msanga,20,TZ,1592411774,31,-6.05,36.03,77.00,13.87
525,la palma,90,US,1592411774,64,33.85,-118.05,71.01,4.70
526,gornopravdinsk,65,RU,1592411774,92,60.05,69.9,44.33,4.07
527,adrar,0,MR,1592411774,12,20.5,-10.07,105.33,24.43
528,albert lea,1,US,1592411774,47,43.65,-93.37,82.00,16.11
529,yigou,100,CN,1592411774,88,35.81,114.32,65.34,1.16
530,rock sound,9,BS,1592411774,80,24.9,-76.2,81.28,9.17
531,marzuq,78,YE,1592411774,27,14.4,46.47,90.07,6.02
532,aykhal,19,RU,1592411585,44,66.0,111.5,57.20,4.47
533,katangli,100,RU,1592411775,98,51.71,143.23,40.19,11.79
534,eyl,87,SO,1592411775,55,7.98,49.82,85.95,23.78
535,birnin kebbi,0,NG,1592411775,32,12.45,4.2,99.45,9.60
536,humaita,4,BR,1592411775,39,-7.51,-63.02,93.16,3.47
537,chegdomyn,13,RU,1592411775,85,51.12,133.02,40.42,2.28
538,damghan,12,IR,1592411776,20,36.17,54.35,85.15,2.77
539,malazgirt,12,TR,1592411776,63,39.14,42.54,60.60,2.98
540,trebukhiv,20,UA,1592411776,57,50.48,30.9,80.60,8.95
541,nangomba,55,TZ,1592411776,46,-10.9,38.5,76.19,3.74
542,kachug,21,RU,1592411776,65,53.96,105.88,46.63,2.15
543,joshimath,42,IN,1592411777,52,30.57,79.57,64.99,1.34
544,lagunillas,45,VE,1592411777,70,10.13,-71.26,86.95,7.25
545,zemaiciu naumiestis,50,LT,1592411777,86,55.36,21.7,71.37,6.76
546,huarmey,4,PE,1592411777,63,-10.07,-78.15,70.20,11.74
547,landazuri,61,CO,1592411777,65,6.22,-73.81,79.21,3.65
548,berlevag,17,NO,1592411777,70,70.86,29.09,46.40,10.29
549,kendrapara,75,IN,1592411777,89,20.5,86.42,84.20,11.41
550,trorod,72,DK,1592411778,65,55.84,12.54,73.00,5.08
551,beyneu,0,KZ,1592411778,14,45.32,55.2,85.86,7.83
552,valparaiso,90,CL,1592411778,100,-33.04,-71.63,51.80,9.17
553,kloulklubed,75,PW,1592411778,88,7.04,134.26,78.80,8.12
554,cuamba,0,MZ,1592411778,70,-14.8,36.54,62.98,6.96
555,balikpapan,84,ID,1592411778,87,-1.27,116.83,79.03,9.48
556,anderson,90,US,1592411778,56,34.53,-82.65,73.00,3.36
557,wanning,0,CN,1592411779,85,18.8,110.4,80.69,9.80
558,pucallpa,75,PE,1592411779,62,-8.38,-74.55,87.80,3.36
559,beringovskiy,0,RU,1592411779,69,63.05,179.32,47.95,2.53
560,hokitika,87,NZ,1592411779,92,-42.72,170.97,51.24,6.60
561,yangambi,87,CD,1592411779,64,0.81,24.43,77.88,1.32
562,roald,59,NO,1592411779,72,62.58,6.13,68.00,6.93
563,haradok,0,BY,1592411779,76,55.46,29.98,73.13,6.67
564,isfana,20,KG,1592411779,33,39.84,69.53,71.60,8.95
565,varhaug,20,NO,1592411780,68,58.61,5.65,69.80,6.93
566,mende,28,FR,1592411780,62,44.67,3.5,55.24,9.73
567,moose factory,1,CA,1592411780,51,51.26,-80.61,82.40,8.05
568,riyadh,24,SA,1592411482,9,24.69,46.72,104.00,11.41
569,astoria,90,US,1592411512,77,46.19,-123.83,59.00,3.36
570,chimore,12,BO,1592411780,43,-16.98,-65.13,87.58,5.53
571,klaksvik,92,FO,1592411781,81,62.23,-6.59,53.60,13.87
572,balkanabat,1,TM,1592411781,11,39.51,54.37,91.96,18.14
573,shunyi,92,CN,1592411781,50,40.12,116.65,81.00,8.95
574,la rioja,78,ES,1592411781,49,42.25,-2.5,69.80,5.82
575,anshun,88,CN,1592411781,97,26.25,105.93,68.83,8.77
576,wawa,68,NG,1592411781,62,9.9,4.42,86.99,7.16
577,mitu,47,CO,1592411689,83,1.2,-70.17,82.29,3.47
578,hammerfest,11,NO,1592411781,62,70.66,23.68,51.80,3.36
579,arroyo,46,ES,1592411782,37,41.61,-4.8,71.01,5.82
580,lachi,0,PK,1592411782,11,33.38,71.34,95.56,1.95
